{
  "nodes": [
    {
      "id": "rysy",
      "name": "Rysy",
      "type": "peak",
      "lat": 49.1794,
      "lng": 20.0881,
      "elevation": 2499
    },
    {
      "id": "kozi_wierch",
      "name": "Kozi Wierch",
      "type": "peak",
      "lat": 49.2192,
      "lng": 20.0281,
      "elevation": 2291
    },
    {
      "id": "swinica",
      "name": "Świnica",
      "type": "peak",
      "lat": 49.2197,
      "lng": 20.0097,
      "elevation": 2301
    },
    {
      "id": "koscielec",
      "name": "Kościelec",
      "type": "peak",
      "lat": 49.2311,
      "lng": 20.0114,
      "elevation": 2155
    },
    {
      "id": "kasprowy_wierch",
      "name": "Kasprowy Wierch",
      "type": "peak",
      "lat": 49.2319,
      "lng": 19.9811,
      "elevation": 1987
    },
    {
      "id": "giewont",
      "name": "Giewont",
      "type": "peak",
      "lat": 49.2500,
      "lng": 19.9333,
      "elevation": 1894
    },
    {
      "id": "kopa_kondracka",
      "name": "Kopa Kondracka",
      "type": "peak",
      "lat": 49.2342,
      "lng": 19.9258,
      "elevation": 2005
    },
    {
      "id": "malolaczniak",
      "name": "Małołączniak",
      "type": "peak",
      "lat": 49.2292,
      "lng": 19.9058,
      "elevation": 2096
    },
    {
      "id": "krzesanica",
      "name": "Krzesanica",
      "type": "peak",
      "lat": 49.2281,
      "lng": 19.8889,
      "elevation": 2122
    },
    {
      "id": "ciemniak",
      "name": "Ciemniak",
      "type": "peak",
      "lat": 49.2294,
      "lng": 19.8758,
      "elevation": 2096
    },

    {
      "id": "zawrat",
      "name": "Zawrat",
      "type": "pass",
      "lat": 49.2197,
      "lng": 20.0214,
      "elevation": 2159
    },
    {
      "id": "krzyzne",
      "name": "Krzyżne",
      "type": "pass",
      "lat": 49.2264,
      "lng": 20.0606,
      "elevation": 2112
    },
    {
      "id": "szpiglasowa_przelecz",
      "name": "Szpiglasowa Przełęcz",
      "type": "pass",
      "lat": 49.1967,
      "lng": 20.0425,
      "elevation": 2110
    },
    {
      "id": "liliowe",
      "name": "Liliowe",
      "type": "pass",
      "lat": 49.2211,
      "lng": 19.9908,
      "elevation": 1952
    },
    {
      "id": "karb",
      "name": "Karb",
      "type": "pass",
      "lat": 49.2297,
      "lng": 20.0133,
      "elevation": 1853
    },
    {
      "id": "przelecz_kondracka",
      "name": "Przełęcz Kondracka",
      "type": "pass",
      "lat": 49.2422,
      "lng": 19.9389,
      "elevation": 1725
    },
    {
      "id": "iwaniacka_przelecz",
      "name": "Iwaniacka Przełęcz",
      "type": "pass",
      "lat": 49.2383,
      "lng": 19.8250,
      "elevation": 1459
    },

    {
      "id": "hala_gasienicowa",
      "name": "Hala Gąsienicowa",
      "type": "valley",
      "lat": 49.2431,
      "lng": 20.0000,
      "elevation": 1500
    },
    {
      "id": "hala_kondratowa",
      "name": "Hala Kondratowa",
      "type": "valley",
      "lat": 49.2522,
      "lng": 19.9550,
      "elevation": 1333
    },
    {
      "id": "dolina_pieciu_stawow",
      "name": "Dolina Pięciu Stawów",
      "type": "valley",
      "lat": 49.2136,
      "lng": 20.0489,
      "elevation": 1670
    },
    {
      "id": "morskie_oko",
      "name": "Morskie Oko",
      "type": "valley",
      "lat": 49.2019,
      "lng": 20.0703,
      "elevation": 1395
    },
    {
      "id": "dolina_chocholowska",
      "name": "Dolina Chochołowska",
      "type": "valley",
      "lat": 49.2361,
      "lng": 19.7889,
      "elevation": 1146
    },
    {
      "id": "dolina_koscieliska",
      "name": "Dolina Kościeliska",
      "type": "valley",
      "lat": 49.2500,
      "lng": 19.8667,
      "elevation": 927
    },
    {
      "id": "polana_kalatowki",
      "name": "Polana Kalatówki",
      "type": "valley",
      "lat": 49.2636,
      "lng": 19.9672,
      "elevation": 1198
    },
    {
      "id": "czarny_staw_gasienicowy",
      "name": "Czarny Staw Gąsienicowy",
      "type": "valley",
      "lat": 49.2358,
      "lng": 20.0117,
      "elevation": 1624
    },
    {
      "id": "czarny_staw_pod_rysami",
      "name": "Czarny Staw pod Rysami",
      "type": "valley",
      "lat": 49.1889,
      "lng": 20.0758,
      "elevation": 1583
    },

    {
      "id": "schronisko_murowaniec",
      "name": "Schronisko Murowaniec",
      "type": "shelter",
      "lat": 49.2436,
      "lng": 20.0019,
      "elevation": 1500
    },
    {
      "id": "schronisko_hala_kondratowa",
      "name": "Schronisko na Hali Kondratowej",
      "type": "shelter",
      "lat": 49.2522,
      "lng": 19.9558,
      "elevation": 1333
    },
    {
      "id": "schronisko_piec_stawow",
      "name": "Schronisko w Dolinie Pięciu Stawów",
      "type": "shelter",
      "lat": 49.2131,
      "lng": 20.0481,
      "elevation": 1671
    },
    {
      "id": "schronisko_morskie_oko",
      "name": "Schronisko nad Morskim Okiem",
      "type": "shelter",
      "lat": 49.2019,
      "lng": 20.0708,
      "elevation": 1410
    },
    {
      "id": "schronisko_ornak",
      "name": "Schronisko na Hali Ornak",
      "type": "shelter",
      "lat": 49.2400,
      "lng": 19.8600,
      "elevation": 1100
    },
    {
      "id": "schronisko_chocholowska",
      "name": "Schronisko w Dolinie Chochołowskiej",
      "type": "shelter",
      "lat": 49.2367,
      "lng": 19.7894,
      "elevation": 1146
    },

    {
      "id": "kuznice",
      "name": "Kuźnice",
      "type": "start",
      "lat": 49.2705,
      "lng": 19.9816,
      "elevation": 1025
    },
    {
      "id": "palenica_bialczanska",
      "name": "Palenica Białczańska",
      "type": "start",
      "lat": 49.2553,
      "lng": 20.1036,
      "elevation": 984
    },
    {
      "id": "brzeziny",
      "name": "Brzeziny",
      "type": "start",
      "lat": 49.2772,
      "lng": 20.0458,
      "elevation": 1007
    },
    {
      "id": "kiry",
      "name": "Kiry",
      "type": "start",
      "lat": 49.2750,
      "lng": 19.8681,
      "elevation": 927
    },
    {
      "id": "siwa_polana",
      "name": "Siwa Polana",
      "type": "start",
      "lat": 49.2867,
      "lng": 19.8167,
      "elevation": 910
    },
    {
      "id": "mala_laka",
      "name": "Mała Łąka",
      "type": "start",
      "lat": 49.2733,
      "lng": 19.9133,
      "elevation": 930
    }
  ],
  "edges": [
    {
      "from": "kuznice",
      "to": "polana_kalatowki",
      "distance_km": 1.6,
      "time_min": 35,
      "elevation_gain_m": 170,
      "difficulty": 1
    },
    {
      "from": "polana_kalatowki",
      "to": "hala_kondratowa",
      "distance_km": 2.2,
      "time_min": 55,
      "elevation_gain_m": 135,
      "difficulty": 2
    },
    {
      "from": "hala_kondratowa",
      "to": "schronisko_hala_kondratowa",
      "distance_km": 0.1,
      "time_min": 2,
      "elevation_gain_m": 0,
      "difficulty": 1
    },
    {
      "from": "hala_kondratowa",
      "to": "przelecz_kondracka",
      "distance_km": 1.8,
      "time_min": 75,
      "elevation_gain_m": 390,
      "difficulty": 3
    },
    {
      "from": "przelecz_kondracka",
      "to": "giewont",
      "distance_km": 0.9,
      "time_min": 40,
      "elevation_gain_m": 170,
      "difficulty": 4
    },
    {
      "from": "przelecz_kondracka",
      "to": "kopa_kondracka",
      "distance_km": 1.2,
      "time_min": 45,
      "elevation_gain_m": 280,
      "difficulty": 3
    },
    {
      "from": "kopa_kondracka",
      "to": "malolaczniak",
      "distance_km": 1.7,
      "time_min": 55,
      "elevation_gain_m": 130,
      "difficulty": 3
    },
    {
      "from": "malolaczniak",
      "to": "krzesanica",
      "distance_km": 1.0,
      "time_min": 25,
      "elevation_gain_m": 80,
      "difficulty": 3
    },
    {
      "from": "krzesanica",
      "to": "ciemniak",
      "distance_km": 1.0,
      "time_min": 25,
      "elevation_gain_m": 40,
      "difficulty": 3
    },
    {
      "from": "kiry",
      "to": "dolina_koscieliska",
      "distance_km": 2.5,
      "time_min": 45,
      "elevation_gain_m": 80,
      "difficulty": 1
    },
    {
      "from": "dolina_koscieliska",
      "to": "schronisko_ornak",
      "distance_km": 5.5,
      "time_min": 100,
      "elevation_gain_m": 180,
      "difficulty": 1
    },
    {
      "from": "schronisko_ornak",
      "to": "iwaniacka_przelecz",
      "distance_km": 3.0,
      "time_min": 95,
      "elevation_gain_m": 360,
      "difficulty": 3
    },
    {
      "from": "siwa_polana",
      "to": "dolina_chocholowska",
      "distance_km": 6.5,
      "time_min": 110,
      "elevation_gain_m": 220,
      "difficulty": 1
    },
    {
      "from": "dolina_chocholowska",
      "to": "schronisko_chocholowska",
      "distance_km": 0.2,
      "time_min": 3,
      "elevation_gain_m": 0,
      "difficulty": 1
    },
    {
      "from": "schronisko_chocholowska",
      "to": "iwaniacka_przelecz",
      "distance_km": 3.1,
      "time_min": 95,
      "elevation_gain_m": 320,
      "difficulty": 3
    },
    {
      "from": "kuznice",
      "to": "hala_gasienicowa",
      "distance_km": 3.6,
      "time_min": 120,
      "elevation_gain_m": 490,
      "difficulty": 2
    },
    {
      "from": "brzeziny",
      "to": "hala_gasienicowa",
      "distance_km": 6.2,
      "time_min": 130,
      "elevation_gain_m": 500,
      "difficulty": 2
    },
    {
      "from": "hala_gasienicowa",
      "to": "schronisko_murowaniec",
      "distance_km": 0.2,
      "time_min": 3,
      "elevation_gain_m": 0,
      "difficulty": 1
    },
    {
      "from": "schronisko_murowaniec",
      "to": "czarny_staw_gasienicowy",
      "distance_km": 1.7,
      "time_min": 35,
      "elevation_gain_m": 120,
      "difficulty": 2
    },
    {
      "from": "czarny_staw_gasienicowy",
      "to": "karb",
      "distance_km": 1.4,
      "time_min": 55,
      "elevation_gain_m": 230,
      "difficulty": 3
    },
    {
      "from": "karb",
      "to": "koscielec",
      "distance_km": 1.1,
      "time_min": 45,
      "elevation_gain_m": 250,
      "difficulty": 4
    },
    {
      "from": "hala_gasienicowa",
      "to": "liliowe",
      "distance_km": 3.1,
      "time_min": 100,
      "elevation_gain_m": 450,
      "difficulty": 3
    },
    {
      "from": "liliowe",
      "to": "kasprowy_wierch",
      "distance_km": 1.4,
      "time_min": 35,
      "elevation_gain_m": 80,
      "difficulty": 2
    },
    {
      "from": "liliowe",
      "to": "swinica",
      "distance_km": 1.7,
      "time_min": 75,
      "elevation_gain_m": 350,
      "difficulty": 4
    },
    {
      "from": "swinica",
      "to": "zawrat",
      "distance_km": 1.4,
      "time_min": 60,
      "elevation_gain_m": 120,
      "difficulty": 5
    },
    {
      "from": "zawrat",
      "to": "kozi_wierch",
      "distance_km": 2.4,
      "time_min": 130,
      "elevation_gain_m": 350,
      "difficulty": 5
    },
    {
      "from": "kozi_wierch",
      "to": "krzyzne",
      "distance_km": 3.2,
      "time_min": 150,
      "elevation_gain_m": 250,
      "difficulty": 5
    },
    {
      "from": "zawrat",
      "to": "dolina_pieciu_stawow",
      "distance_km": 2.2,
      "time_min": 75,
      "elevation_gain_m": 0,
      "difficulty": 4
    },
    {
      "from": "krzyzne",
      "to": "dolina_pieciu_stawow",
      "distance_km": 3.5,
      "time_min": 110,
      "elevation_gain_m": 0,
      "difficulty": 4
    },
    {
      "from": "dolina_pieciu_stawow",
      "to": "schronisko_piec_stawow",
      "distance_km": 0.3,
      "time_min": 5,
      "elevation_gain_m": 0,
      "difficulty": 1
    },
    {
      "from": "dolina_pieciu_stawow",
      "to": "szpiglasowa_przelecz",
      "distance_km": 3.0,
      "time_min": 110,
      "elevation_gain_m": 440,
      "difficulty": 4
    },
    {
      "from": "szpiglasowa_przelecz",
      "to": "morskie_oko",
      "distance_km": 4.5,
      "time_min": 120,
      "elevation_gain_m": 0,
      "difficulty": 4
    },
    {
      "from": "morskie_oko",
      "to": "schronisko_morskie_oko",
      "distance_km": 0.1,
      "time_min": 2,
      "elevation_gain_m": 0,
      "difficulty": 1
    },
    {
      "from": "palenica_bialczanska",
      "to": "morskie_oko",
      "distance_km": 8.0,
      "time_min": 135,
      "elevation_gain_m": 410,
      "difficulty": 1
    },
    {
      "from": "morskie_oko",
      "to": "czarny_staw_pod_rysami",
      "distance_km": 2.0,
      "time_min": 50,
      "elevation_gain_m": 200,
      "difficulty": 2
    },
    {
      "from": "czarny_staw_pod_rysami",
      "to": "rysy",
      "distance_km": 3.5,
      "time_min": 180,
      "elevation_gain_m": 900,
      "difficulty": 5
    }
  ]
}